[{
        "name": "中国太平洋保险公司，上海银行",
        "address": "中山东一路1号",
        "intro": "A",
        "longitude": "121.4979934",
        "latitude": "31.2392867",
        "labels": ["马海洋行", "Ⅰ"]
    },
    {
        "name": "东风饭店",
        "address": "中山东一路2号",
        "intro": "B",
        "longitude": "121.4979212",
        "latitude": "31.23941829",
        "labels": ["致和洋行塔兰特", "Ⅰ"]
    },
    {
        "name": "浦东发展银行",
        "address": "中山东一路10-12号",
        "intro": "C",
        "longitude": "121.4969801",
        "latitude": "31.24143042",
        "labels": ["公和洋行", "Ⅰ"]
    },
    {
        "name": "上海海关",
        "address": "中山东一路13号",
        "intro": "A",
        "longitude": "121.4966287",
        "latitude": "31.24238595",
        "labels": ["公和洋行", "Ⅰ"]
    },
    {
        "name": "和平饭店南楼",
        "address": "中山东一路19号",
        "intro": "B",
        "longitude": "121.4963718",
        "latitude": "31.24476184",
        "labels": ["玛礼逊洋行斯科特", "Ⅰ"]
    },
    {
        "name": "和平饭店北楼",
        "address": "中山东一路20号",
        "intro": "C",
        "longitude": "121.4963307",
        "latitude": "31.24497181",
        "labels": ["公和洋行威尔逊", "Ⅰ"]
    },
    {
        "name": "中国银行上海分行",
        "address": "中山东一路23号",
        "intro": "A",
        "longitude": "121.4964077",
        "latitude": "31.24517044",
        "labels": ["倍高洋行", "Ⅰ"]
    },
    {
        "name": "市对外贸易局",
        "address": "中山东一路27号",
        "intro": "B",
        "longitude": "121.4966252",
        "latitude": "31.24607316",
        "labels": ["恩九生洋行", "Ⅰ"]
    },
    {
        "name": "光大银行",
        "address": "中山东一路29号",
        "intro": "C",
        "longitude": "121.496592",
        "latitude": "31.24675387",
        "labels": ["通和洋行", "Ⅰ"]
    },
    {
        "name": "大世界游乐场",
        "address": "西藏南路1号",
        "intro": "A",
        "longitude": "121.485381",
        "latitude": "31.23426245",
        "labels": ["周惠南，周维基", "Ⅰ"]
    },
    {
        "name": "青年会宾馆",
        "address": "西藏南路123号",
        "intro": "B",
        "longitude": "121.4861033",
        "latitude": "31.2331643",
        "labels": ["李锦沛，范文照，赵深", "Ⅰ"]
    },
    {
        "name": "上海音乐厅",
        "address": "延安东路523号",
        "intro": "C",
        "longitude": "121.4838039",
        "latitude": "31.23340976",
        "labels": ["范文照，赵深", "Ⅰ"]
    },
    {
        "name": "国际饭店",
        "address": "南京西路170号",
        "intro": "A",
        "longitude": "121.4782896",
        "latitude": "31.23946539",
        "labels": ["邬达克", "Ⅰ"]
    },
    {
        "name": "上海市体育总会，市体委",
        "address": "南京西路150号",
        "intro": "B",
        "longitude": "121.4783177",
        "latitude": "31.23984064",
        "labels": ["哈沙德洋行安铎生", "Ⅰ"]
    },
    {
        "name": "金门大酒店",
        "address": "南京西路104号",
        "intro": "C",
        "longitude": "121.4792301",
        "latitude": "31.24019916",
        "labels": ["哈沙德", "Ⅰ"]
    },
    {
        "name": "大光明电影院",
        "address": "南京西路216号",
        "intro": "A",
        "longitude": "121.4777632",
        "latitude": "31.23889318",
        "labels": ["邬达克", "Ⅰ"]
    },
    {
        "name": "上海美术馆",
        "address": "南京西路325号",
        "intro": "B",
        "longitude": "121.4772228",
        "latitude": "31.23721148",
        "labels": ["马海洋行", "Ⅰ"]
    },
    {
        "name": "沐恩堂",
        "address": "西藏中路316号",
        "intro": "C",
        "longitude": "121.4821637",
        "latitude": "31.23913155",
        "labels": ["邬达克", "Ⅰ"]
    },
    {
        "name": "华侨商店、华联商厦",
        "address": "南京东路627-635号",
        "intro": "A",
        "longitude": "121.4852903",
        "latitude": "31.24101365",
        "labels": ["哈沙德，飞力拍斯", "Ⅰ"]
    },
    {
        "name": "时装公司、东亚饭店",
        "address": "南京东路690号",
        "intro": "B",
        "longitude": "121.4837481",
        "latitude": "31.24130658",
        "labels": ["德和洋行", "Ⅰ"]
    },
    {
        "name": "第一食品商店",
        "address": "南京东路720号",
        "intro": "C",
        "longitude": "121.4833158",
        "latitude": "31.24127921",
        "labels": ["鸿达洋行", "Ⅰ"]
    },
    {
        "name": "第一百货商店",
        "address": "南京东路830号",
        "intro": "A",
        "longitude": "121.4813173",
        "latitude": "31.24076912",
        "labels": ["朱彬，梁衍", "Ⅰ"]
    },
    {
        "name": "大上海电影院",
        "address": "西藏中路520号",
        "intro": "B",
        "longitude": "121.4809472",
        "latitude": "31.24263918",
        "labels": ["华盖建筑事务所赵深，陈植", "Ⅰ"]
    },
    {
        "name": "老市政府大楼",
        "address": "江西中路215、209号；汉口路193、223、239号",
        "intro": "C",
        "longitude": "121.4930604",
        "latitude": "31.24179336",
        "labels": ["工部局工务处Robert Charles Turner", "Ⅰ"]
    },
    {
        "name": "黄浦区政府礼堂",
        "address": "九江路201号",
        "intro": "A",
        "longitude": "121.4930212",
        "latitude": "31.24252724",
        "labels": ["？？？", "Ⅰ"]
    },
    {
        "name": "交通银行",
        "address": "江西中路200号",
        "intro": "B",
        "longitude": "121.493921",
        "latitude": "31.24124392",
        "labels": ["庄俊", "Ⅰ"]
    },
    {
        "name": "董家渡天主堂",
        "address": "董家渡路175号",
        "intro": "C",
        "longitude": "121.5113096",
        "latitude": "31.21990864",
        "labels": ["范廷佐修士", "Ⅰ"]
    },
    {
        "name": "住总公司机电设计院",
        "address": "中山东二路9号",
        "intro": "A",
        "longitude": "121.4989455",
        "latitude": "31.23810925",
        "labels": ["中法实业公司", "Ⅱ"]
    },
    {
        "name": "上海建筑设计研究院（误）",
        "address": "中山东一路4号",
        "intro": "B",
        "longitude": "121.4974877",
        "latitude": "31.23991527",
        "labels": ["公和洋行", "Ⅱ"]
    },
    {
        "name": "华夏银行",
        "address": "中山东一路6号",
        "intro": "C",
        "longitude": "121.4972778",
        "latitude": "31.24048721",
        "labels": ["玛礼逊洋行格兰顿", "Ⅱ"]
    },
    {
        "name": "盘谷银行上海分行",
        "address": "中山东一路7号",
        "intro": "A",
        "longitude": "121.4971001",
        "latitude": "31.24083357",
        "labels": ["通和洋行", "Ⅱ"]
    },
    {
        "name": "中国外汇交易中心",
        "address": "中山东一路15号",
        "intro": "B",
        "longitude": "121.4963796",
        "latitude": "31.24327898",
        "labels": ["倍高洋行", "Ⅱ"]
    },
    {
        "name": "工艺品进出口公司",
        "address": "中山东一路16号",
        "intro": "C",
        "longitude": "121.4964534",
        "latitude": "31.24370558",
        "labels": ["德和洋行", "Ⅱ"]
    },
    {
        "name": "丝绸进出口公司；上海通联实业总公司",
        "address": "中山东一路17号",
        "intro": "A",
        "longitude": "121.4963541",
        "latitude": "31.24388519",
        "labels": ["德和洋行", "Ⅱ"]
    },
    {
        "name": "上海家用纺织品进出口公司",
        "address": "中山东一路18号",
        "intro": "B",
        "longitude": "121.4964037",
        "latitude": "31.24414872",
        "labels": ["公和洋行", "Ⅱ"]
    },
    {
        "name": "工商银行；纺织控股集团公司",
        "address": "中山东一路24号",
        "intro": "C",
        "longitude": "121.4964167",
        "latitude": "31.24552359",
        "labels": ["公和洋行弗兰克·科勒德", "Ⅱ"]
    },
    {
        "name": "市机管局",
        "address": "中山东一路33号1#楼；中山东一路33号8#楼",
        "intro": "A",
        "longitude": "121.4954104",
        "latitude": "31.2480038",
        "labels": ["傅伊斯", "Ⅱ"]
    },
    {
        "name": "外滩史陈列室",
        "address": "中山东二路",
        "intro": "B",
        "longitude": "121.5020803",
        "latitude": "31.23558096",
        "labels": ["？？？", "???"]
    },
    {
        "name": "外白渡桥",
        "address": "外滩",
        "intro": "C",
        "longitude": "121.511969",
        "latitude": "31.25539042",
        "labels": ["有恒洋行金斯密(Howarth Erskine Limited)", "Ⅱ"]
    },
    {
        "name": "乍浦路桥",
        "address": "乍浦路",
        "intro": "A",
        "longitude": "121.493804",
        "latitude": "31.25422763",
        "labels": ["中法实业公司", "Ⅱ"]
    },
    {
        "name": "四川路桥",
        "address": "四川中路",
        "intro": "B",
        "longitude": "121.493673",
        "latitude": "31.24495239",
        "labels": ["公共租界工部局", "Ⅱ"]
    },
    {
        "name": "上海广播电视台",
        "address": "北京东路2号",
        "intro": "C",
        "longitude": "121.4963098",
        "latitude": "31.24654518",
        "labels": ["公和洋行", "Ⅱ"]
    },
    {
        "name": "海运服务公司",
        "address": "滇池路100号",
        "intro": "A",
        "longitude": "121.4944584",
        "latitude": "31.24532588",
        "labels": ["通和洋行", "Ⅱ"]
    },
    {
        "name": "电视社杂志社等",
        "address": "滇池路120号",
        "intro": "B",
        "longitude": "121.4940766",
        "latitude": "31.245323",
        "labels": ["通和洋行", "Ⅱ"]
    },
    {
        "name": "圆明园酒家",
        "address": "北京东路81号",
        "intro": "C",
        "longitude": "121.4949306",
        "latitude": "31.2463395",
        "labels": ["玛礼逊洋行斯科特", "Ⅱ"]
    },
    {
        "name": "黄埔税务局",
        "address": "北京东路342号",
        "intro": "A",
        "longitude": "121.4900231",
        "latitude": "31.24633461",
        "labels": ["通和洋行+李鸿儒", "Ⅱ"]
    },
    {
        "name": "市文体进出口公司",
        "address": "虎丘路128号",
        "intro": "B",
        "longitude": "121.4940995",
        "latitude": "31.24866448",
        "labels": ["邬达克", "Ⅱ"]
    },
    {
        "name": "外贸会堂",
        "address": "虎丘路146号",
        "intro": "C",
        "longitude": "121.4942007",
        "latitude": "31.24918897",
        "labels": ["鸿达洋行", "Ⅱ"]
    },
    {
        "name": "爱建公司",
        "address": "香港路59号",
        "intro": "A",
        "longitude": "121.4933567",
        "latitude": "31.24820243",
        "labels": ["东南建筑工程公司过养默", "Ⅱ"]
    },
    {
        "name": "上海广告公司",
        "address": "圆明园路97号",
        "intro": "B",
        "longitude": "121.4946919",
        "latitude": "31.24687815",
        "labels": ["通和洋行", "Ⅱ"]
    },
    {
        "name": "市政设计院",
        "address": "圆明园路133号",
        "intro": "C",
        "longitude": "121.4946819",
        "latitude": "31.24749807",
        "labels": ["李锦沛", "Ⅱ"]
    },
    {
        "name": "真光大楼",
        "address": "圆明园路209号",
        "intro": "A",
        "longitude": "121.4944907",
        "latitude": "31.2487197",
        "labels": ["邬达克", "Ⅱ"]
    },
    {
        "name": "嘉陵大楼",
        "address": "南京东路99号",
        "intro": "B",
        "longitude": "121.4946154",
        "latitude": "31.24410327",
        "labels": ["德利洋行，世界实业公司", "Ⅱ"]
    },
    {
        "name": "东海商都",
        "address": "南京东路353号",
        "intro": "C",
        "longitude": "121.4900236",
        "latitude": "31.24265151",
        "labels": ["庄俊", "Ⅱ"]
    },
    {
        "name": "仁济医院",
        "address": "山东中路145号",
        "intro": "A",
        "longitude": "121.4911136",
        "latitude": "31.23937347",
        "labels": ["德和洋行", "Ⅱ"]
    },
    {
        "name": "机要局",
        "address": "福州路44号",
        "intro": "B",
        "longitude": "121.4960423",
        "latitude": "31.24120844",
        "labels": ["公和洋行", "Ⅱ"]
    },
    {
        "name": "上海市公安局",
        "address": "福州路185号",
        "intro": "C",
        "longitude": "121.4933859",
        "latitude": "31.24058233",
        "labels": ["工部局建筑师斯丹福", "Ⅱ"]
    },
    {
        "name": "高级法院",
        "address": "福州路209号",
        "intro": "A",
        "longitude": "121.4930047",
        "latitude": "31.24050292",
        "labels": ["克利洋行克利、邬达克", "Ⅱ"]
    },
    {
        "name": "锦江集团财务公司证券经营部，建设银行三支行",
        "address": "广东路51,59号",
        "intro": "B",
        "longitude": "121.4843078",
        "latitude": "31.23639954",
        "labels": ["茂飞", "Ⅱ"]
    },
    {
        "name": "上海巴黎国际银行、轻工业局、老干部大学",
        "address": "广东路93号",
        "intro": "C",
        "longitude": "121.4959275",
        "latitude": "31.23937971",
        "labels": ["通和洋行", "Ⅱ"]
    },
    {
        "name": "三环房产公司",
        "address": "汉口路309号",
        "intro": "A",
        "longitude": "121.4907134",
        "latitude": "31.24125327",
        "labels": ["？？？", "Ⅱ"]
    },
    {
        "name": "吉祥里",
        "address": "河南中路531-541号",
        "intro": "B",
        "longitude": "121.4895409",
        "latitude": "31.24523639",
        "labels": ["？？？", "Ⅱ"]
    },
    {
        "name": "鲤鱼门酒店",
        "address": "江西中路255号",
        "intro": "C",
        "longitude": "121.4931934",
        "latitude": "31.24301705",
        "labels": ["倍高洋行", "Ⅱ"]
    },
    {
        "name": "福州大楼",
        "address": "江西中路170号",
        "intro": "A",
        "longitude": "121.4941332",
        "latitude": "31.24062507",
        "labels": ["公和洋行", "Ⅱ"]
    },
    {
        "name": "新城饭店",
        "address": "江西中路180号",
        "intro": "B",
        "longitude": "121.4940617",
        "latitude": "31.24096598",
        "labels": ["公和洋行", "Ⅱ"]
    },
    {
        "name": "冶金工业局",
        "address": "江西中路181号",
        "intro": "C",
        "longitude": "121.493808",
        "latitude": "31.24053687",
        "labels": ["新瑞和洋行", "Ⅱ"]
    },
    {
        "name": "华东建筑设计研究院",
        "address": "汉口路151号",
        "intro": "A",
        "longitude": "121.49387",
        "latitude": "31.24191306",
        "labels": ["华盖建筑师事务所陈植", "Ⅱ"]
    },
    {
        "name": "上海信托投资公司",
        "address": "九江路111号",
        "intro": "B",
        "longitude": "121.4944824",
        "latitude": "31.24283913",
        "labels": ["基泰工程司", "Ⅱ"]
    },
    {
        "name": "市医药供应公司",
        "address": "九江路89号",
        "intro": "C",
        "longitude": "121.4949536",
        "latitude": "31.24312915",
        "labels": ["思九生洋行", "Ⅱ"]
    },
    {
        "name": "建设银行分行",
        "address": "九江路50号",
        "intro": "A",
        "longitude": "121.495456",
        "latitude": "31.24342024",
        "labels": ["公和洋行", "Ⅱ"]
    },
    {
        "name": "九江路邮电局",
        "address": "九江路36号",
        "intro": "B",
        "longitude": "121.4957969",
        "latitude": "31.24350671",
        "labels": ["德和洋行", "Ⅱ"]
    },
    {
        "name": "若瑟堂",
        "address": "四川南路36号",
        "intro": "C",
        "longitude": "121.4972921",
        "latitude": "31.23650282",
        "labels": ["罗礼思修士", "Ⅱ"]
    },
    {
        "name": "轻工业局",
        "address": "四川中路33号",
        "intro": "A",
        "longitude": "121.4961532",
        "latitude": "31.23879895",
        "labels": ["哈沙德", "Ⅱ"]
    },
    {
        "name": "上海时运物业集团、上海市新华书店",
        "address": "四川中路133号",
        "intro": "B",
        "longitude": "121.4955312",
        "latitude": "31.24032872",
        "labels": ["文格罗白朗洋行", "Ⅱ"]
    },
    {
        "name": "上海浦东国际机场公司",
        "address": "四川中路220号",
        "intro": "C",
        "longitude": "121.4953974",
        "latitude": "31.24179775",
        "labels": ["公和洋行", "Ⅱ"]
    },
    {
        "name": "化轻公司",
        "address": "四川中路261号",
        "intro": "A",
        "longitude": "121.494864",
        "latitude": "31.24263187",
        "labels": ["邬达克", "Ⅱ"]
    },
    {
        "name": "上海市工人文化宫",
        "address": "西藏中路120号",
        "intro": "B",
        "longitude": "121.484218",
        "latitude": "31.23636949",
        "labels": ["新瑞和洋行", "Ⅱ"]
    },
    {
        "name": "上海黄浦房地产股份有限公司",
        "address": "延安东路110号",
        "intro": "C",
        "longitude": "121.4962971",
        "latitude": "31.23822518",
        "labels": ["柏韵士", "Ⅱ"]
    },
    {
        "name": "中汇大楼",
        "address": "延安东路143号",
        "intro": "A",
        "longitude": "121.4930605",
        "latitude": "31.23611862",
        "labels": ["赖安工程师", "Ⅱ"]
    },
    {
        "name": "上海市自然博物馆",
        "address": "延安东路260号",
        "intro": "B",
        "longitude": "121.493925",
        "latitude": "31.23702028",
        "labels": ["通和洋行", "Ⅱ"]
    },
    {
        "name": "光明中学",
        "address": "淮海东路70号",
        "intro": "C",
        "longitude": "121.4878259",
        "latitude": "31.23196756",
        "labels": ["？？？", "Ⅱ"]
    },
    {
        "name": "手表七厂办公楼",
        "address": "四川中路185号",
        "intro": "A",
        "longitude": "121.4953304",
        "latitude": "31.24134955",
        "labels": ["平野勇造", "Ⅱ"]
    },
    {
        "name": "慈修庵",
        "address": "秦岭街15号",
        "intro": "B",
        "longitude": "121.4805389",
        "latitude": "31.23592904",
        "labels": ["？？？", "Ⅱ"]
    },
    {
        "name": "小桃园清真寺",
        "address": "小桃园街52号（主楼）",
        "intro": "C",
        "longitude": "121.4962005",
        "latitude": "31.22666663",
        "labels": ["？？？", "Ⅱ"]
    },
    {
        "name": "清心堂",
        "address": "大昌街30号",
        "intro": "A",
        "longitude": "121.5018257",
        "latitude": "31.21920547",
        "labels": ["？？？", "Ⅱ"]
    },
    {
        "name": "中国农业银行上海分行外汇营业部大楼/中国农业银行上海分行",
        "address": "中山东一路26号",
        "intro": "B",
        "longitude": "121.4965378",
        "latitude": "31.24574911",
        "labels": ["公和洋行", "Ⅳ"]
    },
    {
        "name": "上海市总工会大楼、上海市总工会",
        "address": "中山东一路14号",
        "intro": "C",
        "longitude": "121.4965691",
        "latitude": "31.24279915",
        "labels": ["鸿达洋行", "Ⅲ"]
    },
    {
        "name": "锦都大楼/华夏银行上海分行、锦都实业总公司",
        "address": "中山东一路5号",
        "intro": "A",
        "longitude": "121.4973098",
        "latitude": "31.24014529",
        "labels": ["德和洋行", "Ⅲ"]
    },
    {
        "name": "上海电气集团总公司",
        "address": "四川中路106-110号",
        "intro": "B",
        "longitude": "121.4960008",
        "latitude": "31.24007891",
        "labels": ["德和洋行", "Ⅲ"]
    },
    {
        "name": "上海长途电信科技发展公司、上海市城市交通管理局",
        "address": "延安东路34号",
        "intro": "C",
        "longitude": "121.4975973",
        "latitude": "31.23891955",
        "labels": ["新瑞和洋行", "Ⅱ"]
    },
    {
        "name": "爱建金融大楼/爱建信托投资有限公司等",
        "address": "汉口路110号",
        "intro": "A",
        "longitude": "121.4946043",
        "latitude": "31.24232877",
        "labels": ["马海洋行", "Ⅲ"]
    },
    {
        "name": "上海晒图厂等",
        "address": "南京东路151-171号",
        "intro": "B",
        "longitude": "121.4937377",
        "latitude": "31.24393039",
        "labels": ["马海洋行", "Ⅲ"]
    },
    {
        "name": "华东电力管理局",
        "address": "南京东路181号",
        "intro": "C",
        "longitude": "121.4930562",
        "latitude": "31.24368125",
        "labels": ["哈沙德", "Ⅲ"]
    },
    {
        "name": "青岛工行/上海图书馆书库",
        "address": "虎丘路20号",
        "intro": "A",
        "longitude": "121.4940765",
        "latitude": "31.2468667",
        "labels": ["公和洋行", "Ⅲ"]
    },
    {
        "name": "上海海鸥照相机销售有限公司等",
        "address": "南苏州路161-175号",
        "intro": "B",
        "longitude": "121.4938153",
        "latitude": "31.2491587",
        "labels": ["恒孚洋行", "Ⅲ"]
    },
    {
        "name": "元芳弄",
        "address": "四川中路126弄5-21号",
        "intro": "C",
        "longitude": "121.497212",
        "latitude": "31.24041583",
        "labels": ["通和洋行", "Ⅲ"]
    },
    {
        "name": "懿德大楼/新世纪创业有限公司，黄中大楼/黄浦区中心医院门诊部",
        "address": "广东路94-102号/四川中路109号",
        "intro": "A",
        "longitude": "121.4957211",
        "latitude": "31.23992955",
        "labels": ["福井房一", "Ⅲ"]
    },
    {
        "name": "虎丘公寓",
        "address": "虎丘路131号",
        "intro": "B",
        "longitude": "121.4938954",
        "latitude": "31.24874067",
        "labels": ["柯士工程司", "Ⅲ"]
    },
    {
        "name": "渣打银行上海分行",
        "address": "圆明园路185号",
        "intro": "C",
        "longitude": "121.4945309",
        "latitude": "31.24835961",
        "labels": ["通和洋行", "Ⅲ"]
    },
    {
        "name": "恒业里",
        "address": "江西中路135弄1-13号",
        "intro": "A",
        "longitude": "121.4940351",
        "latitude": "31.23990624",
        "labels": ["恒孚洋行", "Ⅲ"]
    },
    {
        "name": "上海建筑材料集团总公司",
        "address": "北京东路232-240号",
        "intro": "B",
        "longitude": "121.491965",
        "latitude": "31.24645487",
        "labels": ["通和洋行", "III"]
    },
    {
        "name": "慈安里大楼",
        "address": "南京东路98-114号",
        "intro": "C",
        "longitude": "121.4946834",
        "latitude": "31.24446847",
        "labels": ["爱尔德洋行", "Ⅲ"]
    },
    {
        "name": "东亚银行",
        "address": "四川中路299号",
        "intro": "A",
        "longitude": "121.4947191",
        "latitude": "31.24297043",
        "labels": ["鸿达洋行", "Ⅲ"]
    },
    {
        "name": "中国人民解放军海军后勤部上海物资站",
        "address": "江西中路138号",
        "intro": "B",
        "longitude": "121.4942347",
        "latitude": "31.23994843",
        "labels": ["倍高洋行", "Ⅲ"]
    },
    {
        "name": "上海市储能中学一分部",
        "address": "黄陂南路25号乙",
        "intro": "C",
        "longitude": "121.4801834",
        "latitude": "31.23060529",
        "labels": ["溢中银公司", "Ⅳ"]
    },
    {
        "name": "上海市第八中学 ",
        "address": "陆家浜路650号",
        "intro": "A",
        "longitude": "121.502568",
        "latitude": "31.2184797",
        "labels": ["李锦沛", "Ⅲ"]
    },
    {
        "name": "龙门村 ",
        "address": "尚文路",
        "intro": "B",
        "longitude": "121.4984695",
        "latitude": "31.22140157",
        "labels": ["？？？", "Ⅲ"]
    },
    {
        "name": "上海求新船厂——厂部办公楼/红楼",
        "address": "机厂路132号",
        "intro": "C",
        "longitude": "121.5091609",
        "latitude": "31.21188417",
        "labels": ["？？？", "III"]
    },
    {
        "name": "上海市中华路电话局——办公楼/机房",
        "address": "中华路734号",
        "intro": "A",
        "longitude": "121.5024807",
        "latitude": "31.22054046",
        "labels": ["？？？", "Ⅲ"]
    },
    {
        "name": "浦光大楼/浦光中学",
        "address": "四川中路595-607号",
        "intro": "B",
        "longitude": "121.4929005",
        "latitude": "31.24756586",
        "labels": ["李锦沛，范文照，赵深", "Ⅰ"]
    },
    {
        "name": "自来大楼",
        "address": "江西中路484号",
        "intro": "C",
        "longitude": "121.4915014",
        "latitude": "31.24829101",
        "labels": ["？？？", "Ⅳ"]
    },
    {
        "name": "自力大楼/自来水公司管线管理所",
        "address": "江西中路464-466号",
        "intro": "A",
        "longitude": "121.4917147",
        "latitude": "31.24769894",
        "labels": ["？？？", "Ⅳ"]
    },
    {
        "name": "住宅",
        "address": "江西中路473号",
        "intro": "B",
        "longitude": "121.4913843",
        "latitude": "31.24795138",
        "labels": ["？？？", "IV"]
    },
    {
        "name": "恒丰大楼/上海航道局办公用房",
        "address": "江西中路450号-454号",
        "intro": "C",
        "longitude": "121.4918481",
        "latitude": "31.2473147",
        "labels": ["？？？", "IV"]
    },
    {
        "name": "沙美大楼",
        "address": "北京东路190号",
        "intro": "A",
        "longitude": "121.4930786",
        "latitude": "31.24648805",
        "labels": ["通和洋行", "IV"]
    },
    {
        "name": "上海市建工集团、上海市物资局、北京西路售票处等",
        "address": "北京东路230号",
        "intro": "B",
        "longitude": "121.4925726",
        "latitude": "31.24647071",
        "labels": ["华盖建筑事务所", "Ⅳ"]
    },
    {
        "name": "上海市电力公司(北部）、上海市建筑材料供应总公司、上海航空铸锻公司",
        "address": "北京东路239、255号",
        "intro": "C",
        "longitude": "121.4920934",
        "latitude": "31.24621517",
        "labels": ["通和洋行", "Ⅳ"]
    },
    {
        "name": "中一大楼/上海市联运总公司",
        "address": "北京东路270号",
        "intro": "A",
        "longitude": "121.4914519",
        "latitude": "31.24650617",
        "labels": ["通和洋行", "IV"]
    },
    {
        "name": "上海长江电气集团等",
        "address": "北京东路280号",
        "intro": "B",
        "longitude": "121.4911211",
        "latitude": "31.24643266",
        "labels": ["通和洋行", "IV"]
    },
    {
        "name": "上海浦东发展银行总部",
        "address": "宁波路40、50号，江西中路368号",
        "intro": "C",
        "longitude": "121.4925313",
        "latitude": "31.24557706",
        "labels": ["通和洋行", "IV"]
    },
    {
        "name": "光大银行",
        "address": "天津路2号，江西中路349号",
        "intro": "A",
        "longitude": "121.492522",
        "latitude": "31.24505587",
        "labels": ["李锦沛", "Ⅳ"]
    },
    {
        "name": "美丰大楼/上海强农集团",
        "address": "河南中路521-529号，宁波路180号",
        "intro": "B",
        "longitude": "121.4901955",
        "latitude": "31.24499889",
        "labels": ["克利洋行", "IV"]
    },
    {
        "name": "永利大楼",
        "address": "河南中路495号，天津路100号",
        "intro": "C",
        "longitude": "121.4908421",
        "latitude": "31.2444048",
        "labels": ["华盖建筑事务所赵深，陈植", "Ⅳ"]
    },
    {
        "name": "钱业大楼/长江计算机集团",
        "address": "宁波路276号",
        "intro": "A",
        "longitude": "121.488472",
        "latitude": "31.24459049",
        "labels": ["伍滕", "V"]
    },
    {
        "name": "南京饭店",
        "address": "山西南路182-200号",
        "intro": "B",
        "longitude": "121.488997",
        "latitude": "31.24289087",
        "labels": ["杨锡缪", "Ⅳ"]
    },
    {
        "name": "安利大楼/上海晶通化学品有限公司等",
        "address": "四川中路320号，九江路80号",
        "intro": "C",
        "longitude": "121.4949327",
        "latitude": "31.24324486",
        "labels": ["G.W.菲利普斯", "Ⅳ"]
    },
    {
        "name": "上海骅骏商贸有限公司、市残疾人联合会",
        "address": "四川中路268-270号，汉口路50号",
        "intro": "A",
        "longitude": "121.4958691",
        "latitude": "31.24253689",
        "labels": ["通和洋行", "Ⅳ"]
    },
    {
        "name": "曾为黄浦区人民政府大楼",
        "address": "九江路219号",
        "intro": "B",
        "longitude": "121.4924594",
        "latitude": "31.24241334",
        "labels": ["公和洋行", "Ⅳ"]
    },
    {
        "name": "上海市公安机关服务中心",
        "address": "汉口路210号",
        "intro": "C",
        "longitude": "121.4922168",
        "latitude": "31.24177853",
        "labels": ["？？？", "???"]
    },
    {
        "name": "上海市生产服务合作联社等",
        "address": "福州路17、19号",
        "intro": "A",
        "longitude": "121.496718",
        "latitude": "31.24115609",
        "labels": ["？？？", "Ⅳ"]
    },
    {
        "name": "申达大楼/上海市机电设计研究院",
        "address": "福州路89号",
        "intro": "B",
        "longitude": "121.4951992",
        "latitude": "31.24084619",
        "labels": ["锦名洋行", "Ⅳ"]
    },
    {
        "name": "住宅",
        "address": "金陵东路8号",
        "intro": "C",
        "longitude": "121.4980087",
        "latitude": "31.23725465",
        "labels": ["？？？", "Ⅳ"]
    },
    {
        "name": "金陵大楼",
        "address": "四川南路29号",
        "intro": "A",
        "longitude": "121.497282",
        "latitude": "31.23720387",
        "labels": ["协泰行穆拉", "IV"]
    },
    {
        "name": "丰华大楼/上海工业发展基金会",
        "address": "中山东二路22号",
        "intro": "B",
        "longitude": "121.5006719",
        "latitude": "31.23642687",
        "labels": ["新瑞和洋行", "Ⅳ"]
    },
    {
        "name": "黄浦剧场",
        "address": "北京东路780号",
        "intro": "C",
        "longitude": "121.4821271",
        "latitude": "31.24428735",
        "labels": ["？？？", "???"]
    },
    {
        "name": "中国剧场",
        "address": "牛庄路700号-714号",
        "intro": "A",
        "longitude": "121.4833332",
        "latitude": "31.2435093",
        "labels": ["米伦", "Ⅳ"]
    },
    {
        "name": "新光影艺院",
        "address": "宁波路586号",
        "intro": "B",
        "longitude": "121.4830987",
        "latitude": "31.24266301",
        "labels": ["哈沙德", "Ⅳ"]
    },
    {
        "name": "上海铁道宾馆",
        "address": "宁波路588号，贵州路160号-170号",
        "intro": "C",
        "longitude": "121.4826127",
        "latitude": "31.24268897",
        "labels": ["哈沙德", "Ⅳ"]
    },
    {
        "name": "扬子饭店(曾用名：申江饭店)",
        "address": "汉口路740号(云南路转角)",
        "intro": "A",
        "longitude": "121.4861467",
        "latitude": "31.25097497",
        "labels": ["李蟠", "Ⅳ"]
    },
    {
        "name": "上海市纺织原料公司新闸桥仓库",
        "address": "南苏州路1295号",
        "intro": "B",
        "longitude": "121.471485",
        "latitude": "31.24680687",
        "labels": ["通和洋行", "Ⅳ"]
    },
    {
        "name": "上海东方音像有限公司",
        "address": "广东路306号",
        "intro": "C",
        "longitude": "121.4921034",
        "latitude": "31.2386186",
        "labels": ["溢中银公司", "Ⅳ"]
    },
    {
        "name": "住宅",
        "address": "福州路379弄50号",
        "intro": "A",
        "longitude": "121.4899444",
        "latitude": "31.23936407",
        "labels": ["中国建筑公司D.K.Charh", "Ⅳ"]
    },
    {
        "name": "童涵春堂",
        "address": "人民路1号(小东门)",
        "intro": "B",
        "longitude": "121.507532",
        "latitude": "31.22565084",
        "labels": ["？？？", "Ⅳ"]
    },
    {
        "name": "瑞源珠宝等",
        "address": "中华路5号",
        "intro": "C",
        "longitude": "121.5038038",
        "latitude": "31.23084324",
        "labels": ["？？？", "IV"]
    },
    {
        "name": "上海双工缝纫设备开发公司",
        "address": "中华路55号",
        "intro": "A",
        "longitude": "121.5042905",
        "latitude": "31.22993082",
        "labels": ["？？？", "Ⅳ"]
    },
    {
        "name": "集贤村",
        "address": "金坛路35弄1号-30号、32号-44号",
        "intro": "B",
        "longitude": "121.504435",
        "latitude": "31.22483422",
        "labels": ["？？？", "Ⅳ"]
    },
    {
        "name": "小南门警钟楼",
        "address": "中华路581号",
        "intro": "C",
        "longitude": "121.5046715",
        "latitude": "31.22160193",
        "labels": ["？？？", "Ⅳ"]
    },
    {
        "name": "沪南钱业公所",
        "address": "人民路安仁街古城公园内（原址：北施家弄133号）",
        "intro": "A",
        "longitude": "121.500454",
        "latitude": "31.23412584",
        "labels": ["？？？", "Ⅳ"]
    }
]